{
   "type": "FeatureCollection",
   "features": [
  {
    "type": "Feature",
    "geometry": {
       "type": "Point",
       "coordinates":  [ -68.21,44.35 ]
    },
    "properties": {
    "Name":"Acadia"
    }
  },
  {
    "type": "Feature",
    "geometry": {
       "type": "Point",
       "coordinates":  [ -170.68,-14.25 ]
    },
    "properties": {
    "Name":"American Samoa"
    }
  },
  {
    "type": "Feature",
    "geometry": {
       "type": "Point",
       "coordinates":  [ -109.57,38.68 ]
    },
    "properties": {
    "Name":"Arches"
    }
  },
  {
    "type": "Feature",
    "geometry": {
       "type": "Point",
       "coordinates":  [ -102.5,43.75 ]
    },
    "properties": {
    "Name":"Badlands"
    }
  },
  {
    "type": "Feature",
    "geometry": {
       "type": "Point",
       "coordinates":  [ -103.25,29.25 ]
    },
    "properties": {
    "Name":"Big Bend"
    }
  },
  {
    "type": "Feature",
    "geometry": {
       "type": "Point",
       "coordinates":  [ -80.08,25.65 ]
    },
    "properties": {
    "Name":"Biscayne"
    }
  },
  {
    "type": "Feature",
    "geometry": {
       "type": "Point",
       "coordinates":  [ -107.72,38.57 ]
    },
    "properties": {
    "Name":"Black Canyon of the Gunnison"
    }
  },
  {
    "type": "Feature",
    "geometry": {
       "type": "Point",
       "coordinates":  [ -112.18,37.57 ]
    },
    "properties": {
    "Name":"Bryce Canyon"
    }
  },
  {
    "type": "Feature",
    "geometry": {
       "type": "Point",
       "coordinates":  [ -9.93,38.21 ]
    },
    "properties": {
    "Name":"Canyonlands"
    }
  },
  {
    "type": "Feature",
    "geometry": {
       "type": "Point",
       "coordinates":  [ -111.17,38.2 ]
    },
    "properties": {
    "Name":"Capitol Reef"
    }
  },
  {
    "type": "Feature",
    "geometry": {
       "type": "Point",
       "coordinates":  [ -104.44,32.17 ]
    },
    "properties": {
    "Name":"Carlsbad Caverns *"
    }
  },
  {
    "type": "Feature",
    "geometry": {
       "type": "Point",
       "coordinates":  [ -119.42,34.01 ]
    },
    "properties": {
    "Name":"Channel Islands"
    }
  },
  {
    "type": "Feature",
    "geometry": {
       "type": "Point",
       "coordinates":  [ -80.78,33.78 ]
    },
    "properties": {
    "Name":"Congaree"
    }
  },
  {
    "type": "Feature",
    "geometry": {
       "type": "Point",
       "coordinates":  [ -122.10,42.94 ]
    },
    "properties": {
    "Name":"Crater Lake"
    }
  },
  {
    "type": "Feature",
    "geometry": {
       "type": "Point",
       "coordinates":  [ -81.55,41.24 ]
    },
    "properties": {
    "Name":"Cuyahoga Valley"
    }
  },
  {
    "type": "Feature",
    "geometry": {
       "type": "Point",
       "coordinates":  [ -116.82,36.24 ]
    },
    "properties": {
    "Name":"Death Valley"
    }
  },
  {
    "type": "Feature",
    "geometry": {
       "type": "Point",
       "coordinates":  [ -150.50,63.33 ]
    },
    "properties": {
    "Name":"Denali"
    }
  },
  {
    "type": "Feature",
    "geometry": {
       "type": "Point",
       "coordinates":  [ -82.87,24.63 ]
    },
    "properties": {
    "Name":"Dry Tortugas"
    }
  },
  {
    "type": "Feature",
    "geometry": {
       "type": "Point",
       "coordinates":  [ -80.93,25.32 ]
    },
    "properties": {
    "Name":"Everglades"
    }
  },
  {
    "type": "Feature",
    "geometry": {
       "type": "Point",
       "coordinates":  [ -153.30,67.78 ]
    },
    "properties": {
    "Name":"Gates of the Arctic"
    }
  },
  {
    "type": "Feature",
    "geometry": {
       "type": "Point",
       "coordinates":  [ -90.19,38.63 ]
    },
    "properties": {
    "Name":"Gateway Arch"
    }
  },
  {
    "type": "Feature",
    "geometry": {
       "type": "Point",
       "coordinates":  [ -114.00,48.8 ]
    },
    "properties": {
    "Name":"Glacier"
    }
  },
  {
    "type": "Feature",
    "geometry": {
       "type": "Point",
       "coordinates":  [ -137.00,58.5 ]
    },
    "properties": {
    "Name":"Glacier Bay"
    }
  },
  {
    "type": "Feature",
    "geometry": {
       "type": "Point",
       "coordinates":  [ -112.14,36.06 ]
    },
    "properties": {
    "Name":"Grand Canyon *"
    }
  },
  {
    "type": "Feature",
    "geometry": {
       "type": "Point",
       "coordinates":  [ -110.80,43.73 ]
    },
    "properties": {
    "Name":"Grand Teton"
    }
  },
  {
    "type": "Feature",
    "geometry": {
       "type": "Point",
       "coordinates":  [ -114.30,38.98 ]
    },
    "properties": {
    "Name":"Great Basin"
    }
  },
  {
    "type": "Feature",
    "geometry": {
       "type": "Point",
       "coordinates":  [ -105.51,37.73 ]
    },
    "properties": {
    "Name":"Great Sand Dunes"
    }
  },
  {
    "type": "Feature",
    "geometry": {
       "type": "Point",
       "coordinates":  [ -83.53,35.68 ]
    },
    "properties": {
    "Name":"Great Smoky Mountains"
    }
  },
  {
    "type": "Feature",
    "geometry": {
       "type": "Point",
       "coordinates":  [ -104.87,31.92 ]
    },
    "properties": {
    "Name":"Guadalupe Mountains"
    }
  },
  {
    "type": "Feature",
    "geometry": {
       "type": "Point",
       "coordinates":  [ -156.17,20.72 ]
    },
    "properties": {
    "Name":"Haleakalā"
    }
  },
  {
    "type": "Feature",
    "geometry": {
       "type": "Point",
       "coordinates":  [ -155.20,19.38 ]
    },
    "properties": {
    "Name":"Hawaiʻi Volcanoes"
    }
  },
  {
    "type": "Feature",
    "geometry": {
       "type": "Point",
       "coordinates":  [ -93.05,34.51 ]
    },
    "properties": {
    "Name":"Hot Springs"
    }
  },
  {
    "type": "Feature",
    "geometry": {
       "type": "Point",
       "coordinates":  [ -87.05,41.6533 ]
    },
    "properties": {
    "Name":"Indiana Dunes"
    }
  },
  {
    "type": "Feature",
    "geometry": {
       "type": "Point",
       "coordinates":  [ -88.55,48.1 ]
    },
    "properties": {
    "Name":"Isle Royale"
    }
  },
  {
    "type": "Feature",
    "geometry": {
       "type": "Point",
       "coordinates":  [ -115.90,33.79 ]
    },
    "properties": {
    "Name":"Joshua Tree"
    }
  },
  {
    "type": "Feature",
    "geometry": {
       "type": "Point",
       "coordinates":  [ -155.00,58.5 ]
    },
    "properties": {
    "Name":"Katmai"
    }
  },
  {
    "type": "Feature",
    "geometry": {
       "type": "Point",
       "coordinates":  [ -149.65,59.92 ]
    },
    "properties": {
    "Name":"Kenai Fjords"
    }
  },
  {
    "type": "Feature",
    "geometry": {
       "type": "Point",
       "coordinates":  [ -118.55,36.8 ]
    },
    "properties": {
    "Name":"Kings Canyon"
    }
  },
  {
    "type": "Feature",
    "geometry": {
       "type": "Point",
       "coordinates":  [ -159.28,67.55 ]
    },
    "properties": {
    "Name":"Kobuk Valley"
    }
  },
  {
    "type": "Feature",
    "geometry": {
       "type": "Point",
       "coordinates":  [ -153.42,60.97 ]
    },
    "properties": {
    "Name":"Lake Clark"
    }
  },
  {
    "type": "Feature",
    "geometry": {
       "type": "Point",
       "coordinates":  [ -121.51,40.49 ]
    },
    "properties": {
    "Name":"Lassen Volcanic"
    }
  },
  {
    "type": "Feature",
    "geometry": {
       "type": "Point",
       "coordinates":  [ -86.10,37.18 ]
    },
    "properties": {
    "Name":"Mammoth Cave"
    }
  },
  {
    "type": "Feature",
    "geometry": {
       "type": "Point",
       "coordinates":  [ -108.49,37.18 ]
    },
    "properties": {
    "Name":"Mesa Verde *"
    }
  },
  {
    "type": "Feature",
    "geometry": {
       "type": "Point",
       "coordinates":  [ -121.75,46.85 ]
    },
    "properties": {
    "Name":"Mount Rainier"
    }
  },
  {
    "type": "Feature",
    "geometry": {
       "type": "Point",
       "coordinates":  [ -81.08,38.07 ]
    },
    "properties": {
    "Name":"New River Gorge"
    }
  },
  {
    "type": "Feature",
    "geometry": {
       "type": "Point",
       "coordinates":  [ -121.20,48.7 ]
    },
    "properties": {
    "Name":"North Cascades"
    }
  },
  {
    "type": "Feature",
    "geometry": {
       "type": "Point",
       "coordinates":  [ -123.50,47.97 ]
    },
    "properties": {
    "Name":"Olympic"
    }
  },
  {
    "type": "Feature",
    "geometry": {
       "type": "Point",
       "coordinates":  [ -109.78,35.07 ]
    },
    "properties": {
    "Name":"Petrified Forest"
    }
  },
  {
    "type": "Feature",
    "geometry": {
       "type": "Point",
       "coordinates":  [ -121.16,36.48 ]
    },
    "properties": {
    "Name":"Pinnacles"
    }
  },
  {
    "type": "Feature",
    "geometry": {
       "type": "Point",
       "coordinates":  [ -124.00,41.3 ]
    },
    "properties": {
    "Name":"Redwood *"
    }
  },
  {
    "type": "Feature",
    "geometry": {
       "type": "Point",
       "coordinates":  [ -105.58,40.4 ]
    },
    "properties": {
    "Name":"Rocky Mountain"
    }
  },
  {
    "type": "Feature",
    "geometry": {
       "type": "Point",
       "coordinates":  [ -110.50,32.25 ]
    },
    "properties": {
    "Name":"Saguaro"
    }
  },
  {
    "type": "Feature",
    "geometry": {
       "type": "Point",
       "coordinates":  [ -118.68,36.43 ]
    },
    "properties": {
    "Name":"Sequoia"
    }
  },
  {
    "type": "Feature",
    "geometry": {
       "type": "Point",
       "coordinates":  [ -78.35,38.53 ]
    },
    "properties": {
    "Name":"Shenandoah"
    }
  },
  {
    "type": "Feature",
    "geometry": {
       "type": "Point",
       "coordinates":  [ -103.45,46.97 ]
    },
    "properties": {
    "Name":"Theodore Roosevelt"
    }
  },
  {
    "type": "Feature",
    "geometry": {
       "type": "Point",
       "coordinates":  [ -64.73,18.33 ]
    },
    "properties": {
    "Name":"Virgin Islands"
    }
  },
  {
    "type": "Feature",
    "geometry": {
       "type": "Point",
       "coordinates":  [ -92.88,48.5 ]
    },
    "properties": {
    "Name":"Voyageurs"
    }
  },
  {
    "type": "Feature",
    "geometry": {
       "type": "Point",
       "coordinates":  [ -106.17,32.78 ]
    },
    "properties": {
    "Name":"White Sands"
    }
  },
  {
    "type": "Feature",
    "geometry": {
       "type": "Point",
       "coordinates":  [ -103.48,43.57 ]
    },
    "properties": {
    "Name":"Wind Cave"
    }
  },
  {
    "type": "Feature",
    "geometry": {
       "type": "Point",
       "coordinates":  [ -142.00,61 ]
    },
    "properties": {
    "Name":"Wrangell–St. Elias *"
    }
  },
  {
    "type": "Feature",
    "geometry": {
       "type": "Point",
       "coordinates":  [ -110.50,44.6 ]
    },
    "properties": {
    "Name":"Yellowstone"
    }
  },
  {
    "type": "Feature",
    "geometry": {
       "type": "Point",
       "coordinates":  [ -119.50,37.83 ]
    },
    "properties": {
    "Name":"Yosemite *"
    }
  },
  {
    "type": "Feature",
    "geometry": {
       "type": "Point",
       "coordinates":  [ -113.05,37.3 ]
    },
    "properties": {
    "Name":"Zion"
    }
  }
]
}